[
 {
   "name": "Ray's Drive Inn",
   "review": "http://www.expressnews.com/food/article/365-Days-of-Tacos-Ray-s-Drive-Inn-10827234.php",
   "address": "822 SW 19th St.",
   "other_locations": "None",
   "phone": "210-338-8421",
   "website": "https://www.facebook.com/RaysDriveInn/",
   "full_address": "822 SW 19th St., San Antonio, Texas",
   "latitude": 29.420786,
   "longitude": -98.536921,
   "image": "http://ww4.hdnux.com/photos/56/16/34/12117771/14/920x920.jpg"
 },
 {
   "name": "Taco Haven",
   "review": "http://www.expressnews.com/food/article/365-Days-of-Tacos-Taco-Haven-10840839.php",
   "address": "1032 S. Presa St.",
   "other_locations": "None",
   "phone": "210-533-2171",
   "website": "http://tacohavensouthtown.com/",
   "full_address": "1032 S. Presa St., San Antonio, Texas",
   "latitude": 29.4101,
   "longitude": -98.486713,
   "image": "http://ww2.hdnux.com/photos/56/26/33/12150505/20/920x920.jpg"
 },
 {
   "name": "El Milagrito",
   "review": "http://www.expressnews.com/food/article/365-Days-of-Tacos-El-Milagrito-10856959.php ",
   "address": "521 E. Woodlawn Avenue",
   "other_locations": "None",
   "phone": "210-737-8646",
   "website": "http://www.elmilagritocafe.com/",
   "full_address": "521 E. Woodlawn Avenue, San Antonio, Texas",
   "latitude": 29.452638,
   "longitude": -98.485099,
   "image": "http://ww4.hdnux.com/photos/56/37/45/12188023/8/920x920.jpg"
 },
 {
   "name": "Tia's Taco Hut",
   "review": "http://www.expressnews.com/food/article/365-Days-of-Tacos-Tia-s-Taco-Hut-10862808.php",
   "address": "6820 Huebner Road",
   "other_locations": "5730 Babcock Road; 405 Pat Booker Road",
   "phone": "210-680-8646",
   "website": "http://www.tiastacohut.com/home.html",
   "full_address": "6820 Huebner Road, San Antonio, Texas",
   "latitude": 29.498184,
   "longitude": -98.623376,
   "image": "http://ww4.hdnux.com/photos/56/43/37/12203999/7/920x920.jpg"
 },
 {
   "name": "Little Taco Factory",
   "review": "http://www.expressnews.com/food/article/365-Days-of-Tacos-Little-Taco-Factory-2-10867354.php",
   "address": "1510 McCullough Ave.",
   "other_locations": "None",
   "phone": "210-227-5657",
   "website": "https://www.facebook.com/The-Little-Taco-Factory-Mexican-Restaurant-117834104910145/",
   "full_address": "1510 McCullough Ave., San Antonio, Texas",
   "latitude": 29.443153,
   "longitude": -98.491632,
   "image": "http://ww3.hdnux.com/photos/56/46/31/12215894/16/920x920.jpg"
 },
 {
   "name": "El Buen Gusto Mexican Cafe",
   "review": "http://www.expressnews.com/food/article/365-Days-of-Tacos-El-Buen-Gusto-Mexican-Cafe-10870532.php",
   "address": "7709 Tezel Road",
   "other_locations": "None",
   "phone": "210-681-1773",
   "website": "https://www.facebook.com/El-Buen-Gusto-Mexican-Cafe-200004776716988/",
   "full_address": "7709 Tezel Road, San Antonio, Texas",
   "latitude": 29.512319,
   "longitude": -98.662518,
   "image": "http://ww3.hdnux.com/photos/56/50/13/12223198/12/920x920.jpg"
 },
 {
   "name": "Tacos Y Burritos Metro Basilica #2",
   "review": "http://www.expressnews.com/food/article/365-Days-of-Tacos-Tacos-Y-Burritos-Metro-10878008.php",
   "address": "7627 Culebra Road, Suite 105",
   "other_locations": "None",
   "phone": "210-680-1412",
   "website": "https://www.facebook.com/tacosyburritosmetrobasilica2/",
   "full_address": "7627 Culebra Road, Suite 105, San Antonio, Texas",
   "latitude": 29.460526,
   "longitude": -98.63926,
   "image": "#N/A"
 },
 {
   "name": "Mendez Cafe",
   "review": "http://www.expressnews.com/food/article/365-Days-of-Tacos-Mendez-Cafe-10889509.php",
   "address": "201 Bartholomew Ave.",
   "other_locations": "None",
   "phone": "210-923-6603",
   "website": "None",
   "full_address": "201 Bartholomew Ave., San Antonio, Texas",
   "latitude": 29.370037,
   "longitude": -98.558013,
   "image": "http://ww2.hdnux.com/photos/56/62/66/12266929/11/920x920.jpg"
 },
 {
   "name": "Paloma Blanca Mexican Cuisine",
   "review": "http://www.expressnews.com/food/article/365-Days-of-Tacos-Paloma-Blanca-Mexican-Cuisine-10911960.php",
   "address": "5800 Broadway, #300",
   "other_locations": "None",
   "phone": "210-822-6151",
   "website": "http://palomablanca.net/",
   "full_address": "5800 Broadway, #300, San Antonio, Texas",
   "latitude": 29.479734,
   "longitude": -98.464428,
   "image": "http://ww3.hdnux.com/photos/57/00/47/12323270/5/920x920.jpg"
 },
 {
   "name": "Don Jose Mexican Cafe",
   "review": "http://www.expressnews.com/food/article/365-Days-of-Tacos-Don-Jose-Mexican-Cafe-10929633.php ",
   "address": "955 Pleasanton Road",
   "other_locations": "None",
   "phone": "210-921-6080",
   "website": "None",
   "full_address": "955 Pleasanton Road, San Antonio, Texas",
   "latitude": 29.374842,
   "longitude": -98.504613,
   "image": "http://ww3.hdnux.com/photos/57/13/05/12366146/8/920x920.jpg"
 },
 {
   "name": "Claudia's Restaurant",
   "review": "http://www.expressnews.com/food/article/365-Days-of-Tacos-Claudia-s-Restaurant-10931866.php ",
   "address": "1305 Pleasanton Road",
   "other_locations": "None",
   "phone": "210-362-1204",
   "website": "https://www.facebook.com/claudias.restaurant/ ",
   "full_address": "1305 Pleasanton Road, San Antonio, Texas",
   "latitude": 29.371181,
   "longitude": -98.504468,
   "image": "http://ww2.hdnux.com/photos/57/14/07/12370429/5/920x920.jpg"
 },
 {
   "name": "The Original Donut Shop",
   "review": "http://www.expressnews.com/food/article/365-Days-of-Tacos-The-Original-Donut-Shop-10963356.php",
   "address": "3307 Fredericksburg Road",
   "other_locations": "None",
   "phone": "210-734-5661",
   "website": "https://www.facebook.com/theoriginaldonutshop/",
   "full_address": "3307 Fredericksburg Road, San Antonio, Texas",
   "latitude": 29.47258,
   "longitude": -98.534622,
   "image": "http://ww1.hdnux.com/photos/57/41/50/12458516/9/920x920.jpg"
 },
 {
   "name": "Alejandro's Mexican Restaurant",
   "review": "http://www.expressnews.com/food/article/365-Days-of-Tacos-Alejandro-s-Mexican-10966259.php",
   "address": "1523 W. Commerce St.",
   "other_locations": "None",
   "phone": "210-271-7270",
   "website": "https://www.facebook.com/AlejandrosMexicanRestaurant",
   "full_address": "1523 W. Commerce St., San Antonio, Texas",
   "latitude": 29.426938,
   "longitude": -98.511978,
   "image": "http://ww3.hdnux.com/photos/57/42/74/12463934/3/920x920.jpg"
 },
 {
   "name": "Danny's Cocina Mexicana",
   "review": "http://www.expressnews.com/food/article/365-Days-of-Tacos-Danny-s-Cocina-Mexicana-10983931.php",
   "address": "6031 Callaghan Road",
   "other_locations": "None",
   "phone": "210-647-4510",
   "website": "https://www.facebook.com/dannyscocinacallaghanroad/",
   "full_address": "6031 Callaghan Road, San Antonio, Texas",
   "latitude": 29.488278,
   "longitude": -98.575586,
   "image": "http://ww3.hdnux.com/photos/57/55/34/12506902/6/920x920.jpg"
 },
 {
   "name": "Taqueria Los Arcos",
   "review": "http://www.expressnews.com/food/article/365-Days-of-Tacos-Taquer-a-Los-Arcos-10997823.php",
   "address": "13777 Nacogdoches Road",
   "other_locations": "None",
   "phone": "210-599-1822",
   "website": "None",
   "full_address": "13777 Nacogdoches Road, San Antonio, TX",
   "latitude": 29.566448,
   "longitude": -98.388164,
   "image": "http://ww4.hdnux.com/photos/57/65/31/12539463/4/920x920.jpg"
 },
 {
   "name": "Mittman Fine Foods",
   "review": "http://www.expressnews.com/food/article/365-Days-of-Tacos-Mittman-Fine-Foods-11015471.php",
   "address": "1125 S. Mittman St.",
   "other_locations": "None",
   "phone": "210-532-3318",
   "website": "None",
   "full_address": "1125 S. Mittman St., San Antonio, Texas",
   "latitude": 29.408143,
   "longitude": -98.454713,
   "image": "http://ww4.hdnux.com/photos/57/77/75/12582775/3/920x920.jpg"
 },
 {
   "name": "Los Campos Dos Hermanos",
   "review": "http://www.expressnews.com/food/article/365-Days-of-Tacos-Los-Campos-Dos-Hermanos-11026382.php",
   "address": "7236 W. Military Drive",
   "other_locations": "None",
   "phone": "210-674-3800",
   "website": "None",
   "full_address": "7236 W. Military Drive, San Antonio, Texas",
   "latitude": 29.413312,
   "longitude": -98.628914,
   "image": "http://ww4.hdnux.com/photos/60/06/05/12607843/4/920x920.jpg"
 },
 {
   "name": "Taco Taco Cafe",
   "review": "http://www.expressnews.com/food/article/365-Days-of-Tacos-Taco-Taco-Cafe-11050453.php  ",
   "address": "145 E. Hildebrand Ave.",
   "other_locations": "None",
   "phone": "210-822-9533",
   "website": "tacotacosa.com",
   "full_address": "145 E. Hildebrand Ave., San Antonio, Texas",
   "latitude": 29.466657,
   "longitude": -98.492271,
   "image": "http://ww2.hdnux.com/photos/60/24/54/12667709/4/920x920.jpg"
 },
 {
   "name": "Karolina's Mexican Food",
   "review": "http://www.expressnews.com/food/article/365-Days-of-Tacos-Karolina-s-Mexican-Food-11063533.php",
   "address": "11510 U.S. 281 S.",
   "other_locations": "None",
   "phone": "210-973-5910",
   "website": "https://www.facebook.com/karolinasmexicanfood/",
   "full_address": "11510 U.S. 281 S., San Antonio, Texas",
   "latitude": 29.307328,
   "longitude": -98.473179,
   "image": "http://ww4.hdnux.com/photos/60/34/32/12699327/3/920x920.jpg"
 },
 {
   "name": "Taquitos West Ave.",
   "review": "http://www.expressnews.com/food/article/365-Days-of-Tacos-Taquitos-West-Ave-11072197.php",
   "address": "2818 West Ave.",
   "other_locations": "None",
   "phone": "210-525-9888",
   "website": "taquitoswestavenue.com",
   "full_address": "2818 West Ave., San Antonio, Texas",
   "latitude": 29.486364,
   "longitude": -98.525731,
   "image": "http://ww4.hdnux.com/photos/60/40/71/12717683/5/920x920.jpg"
 },
 {
   "name": "El Paraiso de Jalisco",
   "review": "http://www.expressnews.com/food/article/365-Days-of-Tacos-El-Paraiso-de-Jalisco-11092038.php",
   "address": "7850 S. Loop 1604 W.",
   "other_locations": "None",
   "phone": "830-429-3478",
   "website": "None",
   "full_address": "7850 S. Loop 1604 W., San Antonio, Texas",
   "latitude": 29.231426,
   "longitude": -98.654256,
   "image": "http://ww2.hdnux.com/photos/60/57/12/12776113/3/920x920.jpg"
 },
 {
   "name": "Mi Ranchito",
   "review": "http://www.expressnews.com/food/article/365-Days-of-Tacos-Mi-Ranchito-11116534.php",
   "address": "2526 Culebra Road",
   "other_locations": "None",
   "phone": "210-908-9116",
   "website": "None",
   "full_address": "2526 Culebra Road, San Antonio, Texas",
   "latitude": 29.447136,
   "longitude": -98.548499,
   "image": "http://ww2.hdnux.com/photos/60/75/17/12833761/3/920x920.jpg"
 },
 {
   "name": "Lee's El Taco Garage",
   "review": "http://www.expressnews.com/food/article/365-Days-of-Tacos-Lee-s-El-Taco-Garage-11130477.php",
   "address": "8403 Broadway",
   "other_locations": "None",
   "phone": "210-826-4405",
   "website": "https://www.facebook.com/TacoGarageTX/",
   "full_address": "8403 Broadway, San Antonio, Texas",
   "latitude": 29.515328,
   "longitude": -98.465755,
   "image": "http://ww1.hdnux.com/photos/61/05/17/12866552/3/920x920.jpg"
 },
 {
   "name": "Maria's Cafe",
   "review": "http://www.expressnews.com/food/article/365-Days-of-Tacos-Maria-s-Cafe-11141729.php",
   "address": "1105 Nogalitos St.",
   "other_locations": "None",
   "phone": "210-227-7005",
   "website": "https://www.facebook.com/Marias-Cafe-265598423486322/",
   "full_address": "1105 Nogalitos St., San Antonio, TX",
   "latitude": 29.402266,
   "longitude": -98.510358,
   "image": "http://ww4.hdnux.com/photos/61/13/31/12891731/3/920x920.jpg"
 },
 {
   "name": "Tommy's Restaurant",
   "review": "http://www.expressnews.com/food/article/365-Days-of-Tacos-Tommy-s-Restaurant-11147513.php",
   "address": "1205 Nogalitos St.",
   "other_locations": "8823 Wurzbach Rd., 6702 San Pedro, 107 S. Flores",
   "phone": "210-223-9841",
   "website": "http://www.mytommys.com/",
   "full_address": "1205 Nogalitos St. San Antonio, TX 78204",
   "latitude": 29.401467,
   "longitude": -98.511218,
   "image": "http://ww4.hdnux.com/photos/61/17/31/12908123/4/920x920.jpg"
 },
 {
   "name": "Patsy's Place",
   "review": "http://www.expressnews.com/food/article/365-Days-of-Tacos-Patsy-s-Place-11152856.php",
   "address": "11319 West Ave.",
   "other_locations": "None",
   "phone": "210-465-9131",
   "website": "https://www.facebook.com/PatsysPlaceSA/",
   "full_address": "11319 West Ave., San Antonio, Texas",
   "latitude": 29.543319,
   "longitude": -98.512763,
   "image": "http://ww2.hdnux.com/photos/61/22/05/12919133/3/920x920.jpg"
 },
 {
   "name": "Carnitas Lonja",
   "review": "http://www.expressnews.com/food/article/365-Days-of-Tacos-Carnitas-Lonja-11165743.php",
   "address": "1107 Roosevelt Ave.",
   "other_locations": "None",
   "phone": "210-612-3626",
   "website": "https://www.facebook.com/Lonja17/?ref=aymt_homepage_panel",
   "full_address": "1107 Roosevelt Ave., San Antonio, TX",
   "latitude": 29.393136,
   "longitude": -98.486338,
   "image": "http://ww2.hdnux.com/photos/61/32/20/12952597/9/920x920.jpg"
 },
 {
   "name": "Teran's Restaurant",
   "review": "http://www.expressnews.com/food/article/365-Days-of-Tacos-Teran-s-Restaurant-11167377.php",
   "address": "4403 E. Houston St.",
   "other_locations": "None",
   "phone": "210-333-6470",
   "website": "None",
   "full_address": "4403 E. Houston St., San Antonio, TX",
   "latitude": 29.424735,
   "longitude": -98.408971,
   "image": "http://ww2.hdnux.com/photos/61/33/06/12956077/3/920x920.jpg"
 },
 {
   "name": "Tacos Beto's",
   "review": "http://www.expressnews.com/food/article/365-Days-of-Tacos-Tacos-Beto-s-11176717.php",
   "address": "3715 Culebra Road",
   "other_locations": "None",
   "phone": "210-459-3134",
   "website": "https://www.facebook.com/Tacos-betos-815430361820546/",
   "full_address": "3715 Culebra Road, San Antonio, TX",
   "latitude": 29.450485,
   "longitude": -98.576858,
   "image": "http://ww4.hdnux.com/photos/61/40/61/12979303/3/920x920.jpg"
 },
 {
   "name": "Los Magueyes Mexican Restaurant",
   "review": "http://www.expressnews.com/food/article/365-Days-of-Tacos-Los-Magueyes-Mexican-Restaurant-11200174.php",
   "address": "3743 Pleasanton Rd.",
   "other_locations": "None",
   "phone": "210-922-2118",
   "website": "none",
   "full_address": "3743 Pleasonton Rd., San Antonio, TX",
   "latitude": 29.341097,
   "longitude": -98.504302,
   "image": "http://ww1.hdnux.com/photos/61/57/21/13038680/5/920x920.jpg"
 },
 {
   "name": "Las Sabrosas de Guanajuato",
   "review": "http://www.expressnews.com/food/article/365-Days-of-Tacos-Las-Sabrosas-de-Guanajuato-11214141.php#photo-13072917",
   "address": "6825 San Pedro Ave.",
   "other_locations": "None",
   "phone": "210-785-9211",
   "website": "https://www.facebook.com/Las-Sabrosas-de-Guanajuato-256849241005491/",
   "full_address": "6825 San Pedro Ave. San Antonio, TX",
   "latitude": 29.502868,
   "longitude": -98.499765,
   "image": "http://ww3.hdnux.com/photos/61/67/50/13072914/11/920x920.jpg"
 },
 {
   "name": "Taco Riendo",
   "review": "http://www.expressnews.com/food/article/365-Days-of-Tacos-Taco-Riendo-11230542.php",
   "address": "6624 San Pedro Ave.",
   "other_locations": "None",
   "phone": "210-824-9130",
   "website": "http://tacoriendotx.com/",
   "full_address": "6624 San Pedro Ave., San Antonio, TX",
   "latitude": 29.499499,
   "longitude": -98.49916,
   "image": "http://ww3.hdnux.com/photos/62/02/22/13116582/11/920x920.jpg"
 },
 {
   "name": "Los Valles",
   "review": "http://www.expressnews.com/food/article/365-Days-of-Tacos-Los-Valles-11248285.php#photo-13153358",
   "address": "3915 Nogalitos St.",
   "other_locations": "None",
   "phone": "210-927-9595",
   "website": "http://www.losvallesproduce.com/",
   "full_address": "3915 Nogalitos St., San Antonio, TX",
   "latitude": 29.375932,
   "longitude": -98.533732,
   "image": "http://ww3.hdnux.com/photos/62/13/21/13153354/5/920x920.jpg"
 },
 {
   "name": "Angela's Cafe",
   "review": "http://www.expressnews.com/food/article/365-Days-of-Tacos-Angela-s-Cafe-11259697.php",
   "address": "4822 S. Zarzamora St.",
   "other_locations": "None",
   "phone": "210-923-0604",
   "website": "None",
   "full_address": "4822 S. Zarzamora St., San Antonio TX",
   "latitude": 29.377524,
   "longitude": -98.533926,
   "image": "http://ww1.hdnux.com/photos/62/20/21/13173860/3/920x920.jpg"
 },
 {
   "name": "Mi Tierra Cafe y Panadería",
   "review": "http://www.expressnews.com/food/article/365-Days-of-Tacos-Mi-Tierra-Cafe-y-Panader-a-11278793.php",
   "address": "218 Produce Row at Market Square",
   "other_locations": "None",
   "phone": "210-225-1262",
   "website": "http://mitierracafe.com/",
   "full_address": "218 Produce Row at Market Square, San Antonio, TX",
   "latitude": 29.424968,
   "longitude": -98.499705,
   "image": "http://ww4.hdnux.com/photos/62/32/46/13216179/3/920x920.jpg"
 },
 {
   "name": "Ruthie's Mexican Restaurant",
   "review": "http://www.expressnews.com/food/article/365-Days-of-Tacos-Ruthie-s-Mexican-Restaurant-11284350.php#photo-13233899",
   "address": "11423 West Ave",
   "other_locations": "None",
   "phone": "210-308-0253",
   "website": "https://www.facebook.com/Ruthies78213/",
   "full_address": "11423 West Ave., San Antonio, TX",
   "latitude": 29.544195,
   "longitude": -98.51152,
   "image": "http://ww4.hdnux.com/photos/62/36/73/13233891/3/920x920.jpg"
 },
 {
   "name": "Taco Libre",
   "review": "http://www.expressnews.com/food/article/365-Days-of-Tacos-Taco-Libre-11302046.php#photo-13269698",
   "address": "6511 Ingram Road",
   "other_locations": "None",
   "phone": "210-592-6288",
   "website": "https://www.facebook.com/vivatacolibre",
   "full_address": "6511 Ingram Road, San Antonio, TX",
   "latitude": 29.46669,
   "longitude": -98.616118,
   "image": "http://ww1.hdnux.com/photos/62/47/53/13269696/3/920x920.jpg"
 },
 {
   "name": "Sazón Mexican Cafe",
   "review": "http://www.expressnews.com/food/article/365-Days-of-Tacos-Saz-n-Mexican-Cafe-11344900.php#photo-13332613",
   "address": "9822 Potranco Road",
   "other_locations": "None",
   "phone": "210-256-1500",
   "website": "http://sazonmexicancafe.com/",
   "full_address": " 9822 Potranco Road, San Antonio, TX",
   "latitude": 29.436138,
   "longitude": -98.683791,
   "image": "http://ww2.hdnux.com/photos/62/67/02/13332613/3/920x920.jpg"
 },
 {
   "name": "La Perla del Pacifico",
   "review": "http://www.expressnews.com/food/article/365-Days-of-Tacos-La-Perla-del-Pacifico-11721572.php#photo-13481108",
   "address": "7911 Culebra Road",
   "other_locations": "None",
   "phone": "210-973-7600",
   "website": "https://www.facebook.com/laperladelpacificorestaurant/",
   "full_address": " 7911 Culebra Road, San Antonio, TX",
   "latitude": 29.464566,
   "longitude": -98.644082,
   "image": "http://ww3.hdnux.com/photos/63/33/22/13481106/3/920x920.jpg"
 },
 {
   "name": "Rossy's Tacos",
   "review": "http://www.expressnews.com/food/article/365-Days-of-Tacos-Rossy-s-Tacos-11741810.php#photo-13657859",
   "address": "3211 Pleasanton Road",
   "other_locations": "None",
   "phone": "210-924-0252",
   "website": "None",
   "full_address": "3211 Pleasanton Road, San Antonio, TX",
   "latitude": 29.347375,
   "longitude": -98.504161,
   "image": "http://ww2.hdnux.com/photos/64/06/34/13657857/3/920x920.jpg"
 },
 {
   "name": "Yatzil Mexican Restaurant",
   "review": "http://www.expressnews.com/food/article/365-Days-of-Tacos-Yatzil-Mexican-Restaurant-11818770.php#photo-13750870",
   "address": "502 S. Zarzamora St.",
   "other_locations": "None",
   "phone": "210-432-2240",
   "website": "https://www.facebook.com/YatzilMexicanRestaurant/",
   "full_address": "502 S. Zarzamora St., San Antonio, TX",
   "latitude": 29.423712,
   "longitude": -98.52728,
   "image": "http://ww2.hdnux.com/photos/64/35/11/13750869/3/920x920.jpg"
 },
 {
   "name": "El Siete Mares",
   "review": "http://www.expressnews.com/food/article/365-Days-of-Tacos-El-Siete-Mares-11859249.php#photo-13807137",
   "address": "3831 W. Commerce St.",
   "other_locations": "None",
   "phone": "210-436-6056",
   "website": "http://elsietemaressa.com/",
   "full_address": " 3831 W. Commerce St., San Antonio, TX",
   "latitude": 29.429701,
   "longitude": -98.540922,
   "image": "http://ww4.hdnux.com/photos/64/52/70/13807135/3/920x920.jpg"
 },
 {
   "name": "Garcia's Mexican Food",
   "review": "http://www.expressnews.com/food/article/365-Days-of-Tacos-Garcia-s-Mexican-Food-11947198.php#photo-13868736",
   "address": "842 Fredericksburg Rd.",
   "other_locations": "None",
   "phone": "210-735-4525",
   "website": "https://www.facebook.com/Garcias-Mexican-Food-133549451128/",
   "full_address": "842 Fredericksburg Road, San Antonio, TX",
   "latitude": 29.451736,
   "longitude": -98.513313,
   "image": "http://ww3.hdnux.com/photos/64/71/72/13868734/11/920x920.jpg"
 },
 {
   "name": "Yolanda's Uptown Cafe",
   "review": "http://www.expressnews.com/food/article/365-Days-of-Tacos-Yolanda-s-Uptown-Cafe-11960767.php",
   "address": "615 Fredericksburg Road",
   "other_locations": "None",
   "phone": "210-732-2633",
   "website": "None",
   "full_address": "615 Fredericksburg Road, San Antonio, TX",
   "latitude": 29.448852,
   "longitude": -98.511105,
   "image": "http://ww1.hdnux.com/photos/65/01/62/13900948/3/920x920.jpg"
 },
 {
   "name": "Bertha's Mexican Restaurant",
   "review": "http://www.expressnews.com/food/article/365-Days-of-Tacos-Bertha-s-Mexican-Restaurant-12049004.php",
   "address": "2629 W. Martin St.",
   "other_locations": "None",
   "phone": "210-860-6143",
   "website": "None",
   "full_address": "2629 W. Martin St., San Antonio, TX",
   "latitude": 29.431855,
   "longitude": -98.521723,
   "image": "Loading..."
 },
 {
   "name": "Tacos Lira",
   "review": "http://www.expressnews.com/food/article/365-Days-of-Tacos-Tacos-Lira-12167775.php",
   "address": "227 Enrique M. Barrera Parkway",
   "other_locations": "None",
   "phone": "210-430-7050",
   "website": "https://www.facebook.com/tacoslirasa/",
   "full_address": "227 Enrique M. Barrera Parkway, San Antonio, TX",
   "latitude": 29.430694,
   "longitude": -98.56433,
   "image": "http://ww1.hdnux.com/photos/65/42/42/14035124/3/920x920.jpg"
 },
 {
   "name": "Tacos Mando",
   "review": "http://www.expressnews.com/food/article/365-Days-of-Tacos-Tacos-Mando-12184178.php",
   "address": "1231 W. Hildebrand Ave.",
   "other_locations": "None",
   "phone": "281-204-3537",
   "website": "https://www.facebook.com/tacosmando/",
   "full_address": "1231 W. Hildebrand Ave., San Antonio, TX",
   "latitude": 29.466642,
   "longitude": -98.514702,
   "image": "http://ww1.hdnux.com/photos/65/54/13/14074592/3/920x920.jpg"
 },
 {
   "name": "Lydia's Taco House",
   "review": "http://www.expressnews.com/food/article/365-Days-of-Tacos-Lydia-s-Taco-House-12189404.php",
   "address": "536 S. W.W. White Road",
   "other_locations": "None",
   "phone": "210-628-1133",
   "website": "None",
   "full_address": "536 S. W.W. White Road, San Antonio, TX",
   "latitude": 29.42268,
   "longitude": -98.40522,
   "image": "http://ww1.hdnux.com/photos/65/60/16/14091180/3/920x920.jpg"
 },
 {
   "name": "Chacho's",
   "review": "http://www.expressnews.com/food/article/365-Days-of-Tacos-Chacho-s-12194727.php",
   "address": "7870 Callaghan Road",
   "other_locations": "Five other stores",
   "phone": "210-366-2023",
   "website": "http://chachos.com",
   "full_address": "7870 Callaghan Road, San Antonio, TX",
   "latitude": 29.509521,
   "longitude": -98.553569,
   "image": "http://ww3.hdnux.com/photos/65/63/00/14102550/3/920x920.jpg"
 },
 {
   "name": "Millie's Cafe",
   "review": "http://www.expressnews.com/food/article/365-Days-of-Tacos-Millie-s-Cafe-12201883.php",
   "address": "102 Springfield Road",
   "other_locations": "None",
   "phone": "210-440-5680",
   "website": "None",
   "full_address": "102 Springfield Road, San Antonio, TX",
   "latitude": 29.440426,
   "longitude": -98.405095,
   "image": "http://ww1.hdnux.com/photos/65/66/74/14118700/5/920x920.jpg"
 },
 {
   "name": "La Fogata",
   "review": "http://www.expressnews.com/food/article/365-Days-of-Tacos-La-Fogata-12207228.php",
   "address": "2427 Vance Jackson Road",
   "other_locations": "None",
   "phone": "210-340-1337",
   "website": "http://www.lafogata.com",
   "full_address": "2427 Vance Jackson Road, San Antonio, TX",
   "latitude": 29.495865,
   "longitude": -98.53527,
   "image": "http://ww2.hdnux.com/photos/65/72/60/14134313/3/920x920.jpg"
 },
 {
   "name": "Chela's Tacos",
   "review": "http://www.expressnews.com/food/article/365-Days-of-Tacos-Chela-s-Tacos-12216102.php",
   "address": "5231 Broadway, Suite #117",
   "other_locations": "None",
   "phone": "210-753-1040",
   "website": "https://www.facebook.com/chelastacosalamoheights/",
   "full_address": "5231 Broadway, Suite #117, San Antonio, TX",
   "latitude": 29.475938,
   "longitude": -98.463245,
   "image": "http://ww2.hdnux.com/photos/65/77/73/14155497/3/920x920.jpg"
 },
 {
   "name": "Lil' Jonny's Taco House",
   "review": "http://www.expressnews.com/food/article/365-Days-of-Tacos-Lil-Jonny-s-Taco-House-12218338.php",
   "address": "3601 N. PanAm Expressway",
   "other_locations": "None",
   "phone": "210-227-7533",
   "website": "https://www.facebook.com/Lil-Jonnys-Taco-House-559074144208530/",
   "full_address": "3601 N. PanAm Expressway, San Antonio, TX",
   "latitude": 29.448105,
   "longitude": -98.428287,
   "image": "http://ww4.hdnux.com/photos/66/01/12/14160551/3/920x920.jpg"
 },
 {
   "name": "Mama's Kitchen",
   "review": "http://www.expressnews.com/food/article/365-Days-of-Tacos-Mama-s-Kitchen-12227461.php",
   "address": "504 W. Hildebrand Ave.",
   "other_locations": "None",
   "phone": "210-733-0904",
   "website": "https://www.facebook.com/Mamas-Kitchen-1491986057782369/",
   "full_address": "504 W. Hildebrand Ave., San Antonio, TX",
   "latitude": 29.466275,
   "longitude": -98.501741,
   "image": "http://ww4.hdnux.com/photos/66/17/55/14220123/3/920x920.jpg"
 },
 {
   "name": "Chaparritas Mexican Restaurant",
   "review": "http://www.expressnews.com/food/article/365-Days-of-Tacos-Chaparritas-Mexican-Restaurant-12246783.php",
   "address": "7350 Tezel Road",
   "other_locations": "None",
   "phone": "210-520-8100",
   "website": "https://www.facebook.com/ChaparritasMexicanRestaurant/",
   "full_address": "7350 Tezel Road, San Antonio, TX",
   "latitude": 29.504805,
   "longitude": -98.661699,
   "image": "http://ww4.hdnux.com/photos/66/34/30/14272063/3/920x920.jpg"
 },
 {
   "name": "Mia’s Mexican Grill",
   "review": "http://www.expressnews.com/food/article/365-Days-of-Tacos-Mia-s-Mexican-Grill-12253925.php",
   "address": "11739 Bandera Road",
   "other_locations": "None",
   "phone": "210-680-4478",
   "website": "http://www.miasmexicangrill.com/",
   "full_address": "11739 Bandera Road, San Antonio, TX",
   "latitude": 29.550721,
   "longitude": -98.668501,
   "image": "http://ww1.hdnux.com/photos/66/40/26/14288304/3/920x920.jpg"
 },
 {
   "name": "La Barca de Jalisco",
   "review": "http://www.expressnews.com/food/article/365-Days-of-Tacos-La-Barca-de-Jalisco-12263714.php#photo-14313537",
   "address": "606 Steves Ave.",
   "other_locations": "None",
   "phone": "210-534-311",
   "website": "https://www.facebook.com/Labarcadejal/",
   "full_address": "606 Steve Ave., San Antonio, TX",
   "latitude": 29.394856,
   "longitude": -98.490944,
   "image": "Loading..."
 },
 {
   "name": "Paulina's Mexican Restaurant",
   "review": "http://www.expressnews.com/food/article/365-Days-of-Tacos-Paulina-s-Mexican-Restaurant-12270544.php",
   "address": "1438 W. Hutchins Place",
   "other_locations": "None",
   "phone": "210-928-2499",
   "website": "https://www.facebook.com/Paulinas-Mexican-Restaurant-177177872329268/",
   "full_address": "1438 W. Hutchins Place, San Antonio, TX",
   "latitude": 29.345156,
   "longitude": -98.527214,
   "image": "http://ww3.hdnux.com/photos/66/52/17/14328822/3/920x920.jpg"
 },
 {
   "name": "Georgia’s Mexican Restaurant",
   "review": "http://www.expressnews.com/food/article/365-Days-of-Tacos-Georgia-s-Mexican-Restaurant-12284148.php",
   "address": "2214 Palo Alto Road",
   "other_locations": "None",
   "phone": "210-923-9313",
   "website": "None",
   "full_address": "2214 Palo Alto Road, San Antonio, TX",
   "latitude": 29.328161,
   "longitude": -98.551887,
   "image": "http://ww4.hdnux.com/photos/66/62/57/14363615/5/920x920.jpg"
 },
 {
   "name": "Taco House",
   "review": "http://www.expressnews.com/food/article/365-Days-of-Tacos-Taco-House-12318356.php",
   "address": "6307 San Pedro Ave.",
   "other_locations": "None",
   "phone": "210-341-3136",
   "website": "https://www.facebook.com/tacohousesa/",
   "full_address": "6307 San Pedro Ave., San Antonio, TX",
   "latitude": 29.494687,
   "longitude": -98.499565,
   "image": "http://ww4.hdnux.com/photos/67/10/53/14453483/5/920x920.jpg"
 },
 {
   "name": "El Jarro de Arturo",
   "review": "http://www.expressnews.com/food/article/365-Days-of-Tacos-El-Jarro-de-Arturo-12323886.php",
   "address": "13421 San Pedro Ave.",
   "other_locations": "None",
   "phone": "210-494-5084",
   "website": "http://eljarro.com/",
   "full_address": "13421 San Pedro Ave., San Antonio, TX",
   "latitude": 29.564953,
   "longitude": -98.484105,
   "image": "http://ww4.hdnux.com/photos/67/13/65/14466371/7/920x920.jpg"
 },
 {
   "name": "Sangria on the Burg",
   "review": "http://www.expressnews.com/food/article/365-Days-of-Tacos-Sangria-on-the-Burg-12336539.php",
   "address": "5115 Fredericksburg Road",
   "other_locations": "None",
   "phone": "210-265-3763",
   "website": "http://www.sangriaontheburg.com/",
   "full_address": "5115 Fredericksburg Road, San Antonio",
   "latitude": 29.501592,
   "longitude": -98.560025,
   "image": "http://ww4.hdnux.com/photos/67/24/26/14501311/11/920x920.jpg"
 },
 {
   "name": "Cascabel Mexican Patio",
   "review": "http://www.expressnews.com/food/article/365-Days-of-Tacos-Cascabel-Mexican-Patio-12342348.php",
   "address": "1000 S. St. Mary’s St.",
   "other_locations": "None",
   "phone": "210-212-6456",
   "website": "None",
   "full_address": "1000 S. St. Mary’s St., San Antonio, TX",
   "latitude": 29.414503,
   "longitude": -98.488853,
   "image": "http://ww4.hdnux.com/photos/67/27/42/14514307/3/920x920.jpg"
 },
 {
   "name": "El Bandolero",
   "review": "http://www.expressnews.com/food/article/365-Days-of-Tacos-El-Bandolero-12354059.php",
   "address": "14087 O’Connor Road",
   "other_locations": "None",
   "phone": "210-863-4127",
   "website": "https://www.facebook.com/ElBandoleroTacos/",
   "full_address": "14087 O’Connor Road, San Antonio, TX",
   "latitude": 29.569707,
   "longitude": -98.386756,
   "image": "http://ww3.hdnux.com/photos/67/36/06/14541186/3/920x920.jpg"
 },
 {
   "name": "La Bandera Molino",
   "review": "http://www.expressnews.com/food/article/365-Days-of-Tacos-La-Bandera-Molino-12372739.php",
   "address": "2619 N. Zarzamora St.",
   "other_locations": "None",
   "phone": "210-434-0631",
   "website": "None",
   "full_address": "2619 N. Zarzamora St., San Antonio, TX",
   "latitude": 29.455621,
   "longitude": -98.523846,
   "image": "http://ww3.hdnux.com/photos/67/47/70/14581290/3/920x920.jpg"
 },
 {
   "name": "Gibby’s La Cocina",
   "review": "http://www.expressnews.com/food/article/365-Days-of-Tacos-Gibby-s-La-Cocina-12378139.php",
   "address": "2602 Nogalitos St.",
   "other_locations": "None",
   "phone": "210-922-9660",
   "website": "None",
   "full_address": "2602 Nogalitos St., San Antonio, TX",
   "latitude": 29.389217,
   "longitude": -98.521208,
   "image": "http://ww3.hdnux.com/photos/67/52/32/14591674/3/920x920.jpg"
 },
 {
   "name": "Henry’s Puffy Tacos",
   "review": "http://www.expressnews.com/food/article/365-Days-of-Tacos-Henry-s-Puffy-Tacos-12387284.php",
   "address": "6030 Bandera Road",
   "other_locations": "None",
   "phone": "210-647-8339",
   "website": "http://henryspuffytacos.com/",
   "full_address": "6030 Bandera Road, San Antonio, TX",
   "latitude": 29.483517,
   "longitude": -98.604662,
   "image": "http://ww2.hdnux.com/photos/67/57/32/14612117/3/920x920.jpg"
 },
 {
   "name": "Aldaco's Mexican Cuisine",
   "review": "http://www.expressnews.com/food/article/365-Days-of-Tacos-Aldaco-s-Mexican-Cuisine-12401953.php",
   "address": "20079 Stone Oak Parkway",
   "other_locations": "None",
   "phone": "210-494-0561",
   "website": "http://aldacosrestaurants.com/",
   "full_address": "20079 Stone Oak Parkway, San Antonio TX",
   "latitude": 29.642776,
   "longitude": -98.488973,
   "image": "http://ww4.hdnux.com/photos/67/66/76/14643099/3/920x920.jpg"
 },
 {
   "name": "Tacos La Salsita",
   "review": "http://www.expressnews.com/food/article/365-Days-of-Tacos-Tacos-La-Salsita-12404771.php#photo-14649850",
   "address": "8714 Marbach Road",
   "other_locations": "None",
   "phone": "None",
   "website": "None",
   "full_address": "8714 Marbach Road, San Antonio Tx",
   "latitude": 29.417369,
   "longitude": -98.657807,
   "image": "http://ww1.hdnux.com/photos/67/70/47/14649848/3/920x920.jpg"
 },
 {
   "name": "El Nogal",
   "review": "http://www.expressnews.com/food/article/365-Days-of-Tacos-El-Nogal-12407426.php?t=3c4ef16c21",
   "address": "1605 N. St. Mary's St.",
   "other_locations": "None",
   "phone": "210-225-8356",
   "website": "None",
   "full_address": "1605 N. St. Mary's St., San Antonio TX",
   "latitude": 29.439189,
   "longitude": -98.484947,
   "image": "http://ww1.hdnux.com/photos/67/71/56/14654372/3/920x920.jpg"
 },
 {
   "name": "Peter El Norteño",
   "review": "http://www.expressnews.com/food/article/365-Days-of-Tacos-Peter-El-Norte-o-12414429.php",
   "address": "542 Fredericksburg Road",
   "other_locations": "None",
   "phone": "210-731-2912",
   "website": "None",
   "full_address": "542 Fredericksburg Road, San Antonio TX",
   "latitude": 29.447957,
   "longitude": -98.509692,
   "image": "http://ww2.hdnux.com/photos/67/75/17/14668769/3/920x920.jpg"
 },
 {
   "name": "Rancho Grande",
   "review": "http://www.expressnews.com/food/article/365-Days-of-Tacos-Rancho-Grande-12423214.php",
   "address": "3719 S.E. Military Drive",
   "other_locations": "None",
   "phone": "210-359-9200",
   "website": "None",
   "full_address": "3719 S.E. Military Drive, San Antonio, TX",
   "latitude": 29.35459,
   "longitude": -98.423185,
   "image": "http://ww4.hdnux.com/photos/70/01/77/14688223/3/920x920.jpg"
 },
 {
   "name": "Taco Nando",
   "review": "http://www.expressnews.com/food/article/365-Days-of-Tacos-Taco-Nando-12439426.php",
   "address": "2820 Nogalitos St.",
   "other_locations": "None",
   "phone": "210-533-0412",
   "website": "None",
   "full_address": "2820 Nogalitos St., San Antonio, TX",
   "latitude": 29.38723,
   "longitude": -98.522848,
   "image": "http://ww2.hdnux.com/photos/70/11/71/14720617/3/920x920.jpg"
 },
 {
   "name": "Blanco Cafe",
   "review": "http://www.expressnews.com/food/article/365-Days-of-Tacos-Blanco-Cafe-12442349.php",
   "address": "1720 Blanco Road",
   "other_locations": "None",
   "phone": "210-732-6480",
   "website": "http://w.singlepage.com/blanco-cafe/menu?ref=integration",
   "full_address": "1720 Blanco Road, San Antonio, TX",
   "latitude": 29.46225,
   "longitude": -98.507677,
   "image": "http://ww2.hdnux.com/photos/70/13/37/14727113/3/920x920.jpg"
 },
 {
   "name": "Chago's",
   "review": "http://www.expressnews.com/food/article/365-Days-of-Tacos-Chago-s-12447468.php",
   "address": "11827 Perrin Beitel Road",
   "other_locations": "None",
   "phone": "210-637-9815",
   "website": "https://www.facebook.com/TACOS-CHAGOS-425124427578385/",
   "full_address": "11827 Perrin Beitel Road, San Antonio, TX",
   "latitude": 29.547439,
   "longitude": -98.409606,
   "image": "http://ww1.hdnux.com/photos/70/15/75/14737228/11/920x920.jpg"
 },
 {
   "name": "Restaurante El D.F.",
   "review": "http://www.expressnews.com/food/article/365-Days-of-Tacos-Restaurante-El-D-F-12447510.php",
   "address": "4119 Culebra Road",
   "other_locations": "None",
   "phone": "210-431-0157",
   "website": "https://www.facebook.com/ELDf2/",
   "full_address": "4119 Culebra Road, San Antonio, TX",
   "latitude": 29.448751,
   "longitude": -98.585957,
   "image": "http://ww2.hdnux.com/photos/70/15/76/14737329/3/920x920.jpg"
 },
 {
   "name": "King’s Hwy Brew & Q",
   "review": "http://www.expressnews.com/food/article/365-Days-of-Tacos-King-s-Hwy-Brew-Q-12447587.php",
   "address": "1012 N. Flores St.",
   "other_locations": "None",
   "phone": "210-971-9024",
   "website": "http://www.kingshwybnq.com/",
   "full_address": "1012 N. Flores St., San Antonio, TX",
   "latitude": 29.435473,
   "longitude": -98.499886,
   "image": "http://ww3.hdnux.com/photos/70/16/00/14737446/3/920x920.jpg"
 }
]